[
  {
    "displayName": "Acton Central",
    "lat": 51.50883531,
    "lng": -0.263033174,
    "names": [
      "Acton Central"
    ]
  },
  {
    "displayName": "Acton Town",
    "lat": 51.5025,
    "lng": -0.278126,
    "names": [
      "Acton Town"
    ]
  },
  {
    "displayName": "Aldgate",
    "lat": 51.51394,
    "lng": -0.07537,
    "names": [
      "Aldgate"
    ]
  },
  {
    "displayName": "Aldgate East",
    "lat": 51.51514,
    "lng": -0.07178,
    "names": [
      "Aldgate East"
    ]
  },
  {
    "displayName": "All Saints",
    "lat": 51.510301,
    "lng": -0.012832,
    "names": [
      "All Saints"
    ]
  },
  {
    "displayName": "Alperton",
    "lat": 51.54097,
    "lng": -0.30061,
    "names": [
      "Alperton"
    ]
  },
  {
    "displayName": "Amersham",
    "lat": 51.67435,
    "lng": -0.60732,
    "names": [
      "Amersham"
    ]
  },
  {
    "displayName": "Angel",
    "lat": 51.53253,
    "lng": -0.10579,
    "names": [
      "Angel"
    ]
  },
  {
    "displayName": "Archway",
    "lat": 51.56536,
    "lng": -0.13474,
    "names": [
      "Archway"
    ]
  },
  {
    "displayName": "Arnos Grove",
    "lat": 51.61625,
    "lng": -0.13355,
    "names": [
      "Arnos Grove"
    ]
  },
  {
    "displayName": "Arsenal",
    "lat": 51.55847,
    "lng": -0.10561,
    "names": [
      "Arsenal"
    ]
  },
  {
    "displayName": "Baker Street",
    "lat": 51.52265,
    "lng": -0.15704,
    "names": [
      "Baker Street"
    ]
  },
  {
    "displayName": "Balham",
    "lat": 51.44344113,
    "lng": -0.152945844,
    "names": [
      "Balham"
    ]
  },
  {
    "displayName": "Bank",
    "lat": 51.5134047,
    "lng": -0.08905843,
    "names": [
      "Bank"
    ]
  },
  {
    "displayName": "Barbican",
    "lat": 51.520865,
    "lng": -0.097758,
    "names": [
      "Barbican"
    ]
  },
  {
    "displayName": "Barking",
    "lat": 51.54079,
    "lng": 0.08018,
    "names": [
      "Barking"
    ]
  },
  {
    "displayName": "Barkingside",
    "lat": 51.58543,
    "lng": 0.08854,
    "names": [
      "Barkingside"
    ]
  },
  {
    "displayName": "Barons Court",
    "lat": 51.490281,
    "lng": -0.21434,
    "names": [
      "Barons Court"
    ]
  },
  {
    "displayName": "Bayswater",
    "lat": 51.51224,
    "lng": -0.187569,
    "names": [
      "Bayswater"
    ]
  },
  {
    "displayName": "Beckton",
    "lat": 51.514411,
    "lng": 0.06164,
    "names": [
      "Beckton"
    ]
  },
  {
    "displayName": "Beckton Park",
    "lat": 51.508758,
    "lng": 0.054778,
    "names": [
      "Beckton Park"
    ]
  },
  {
    "displayName": "Becontree",
    "lat": 51.54029,
    "lng": 0.1262,
    "names": [
      "Becontree"
    ]
  },
  {
    "displayName": "Belsize Park",
    "lat": 51.55036,
    "lng": -0.16465,
    "names": [
      "Belsize Park"
    ]
  },
  {
    "displayName": "Bermondsey",
    "lat": 51.49813,
    "lng": -0.0635,
    "names": [
      "Bermondsey"
    ]
  },
  {
    "displayName": "Bethnal Green",
    "lat": 51.52718,
    "lng": -0.05504,
    "names": [
      "Bethnal Green"
    ]
  },
  {
    "displayName": "Blackfriars",
    "lat": 51.5114403,
    "lng": -0.1041905,
    "names": [
      "Blackfriars"
    ]
  },
  {
    "displayName": "Blackhorse Road",
    "lat": 51.58698,
    "lng": -0.04104,
    "names": [
      "Blackhorse Road"
    ]
  },
  {
    "displayName": "Blackwall",
    "lat": 51.507903,
    "lng": -0.007438,
    "names": [
      "Blackwall"
    ]
  },
  {
    "displayName": "Bond Street",
    "lat": 51.51461,
    "lng": -0.14897,
    "names": [
      "Bond Street"
    ]
  },
  {
    "displayName": "Borough",
    "lat": 51.50095,
    "lng": -0.09446,
    "names": [
      "Borough"
    ]
  },
  {
    "displayName": "Boston Manor",
    "lat": 51.495371,
    "lng": -0.325573,
    "names": [
      "Boston Manor"
    ]
  },
  {
    "displayName": "Bounds Green",
    "lat": 51.607,
    "lng": -0.12418,
    "names": [
      "Bounds Green"
    ]
  },
  {
    "displayName": "Bow Church",
    "lat": 51.5289,
    "lng": -0.021,
    "names": [
      "Bow Church"
    ]
  },
  {
    "displayName": "Bow Road",
    "lat": 51.52709,
    "lng": -0.02482,
    "names": [
      "Bow Road"
    ]
  },
  {
    "displayName": "Brent Cross",
    "lat": 51.57693,
    "lng": -0.21414,
    "names": [
      "Brent Cross"
    ]
  },
  {
    "displayName": "Brixton",
    "lat": 51.46239,
    "lng": -0.115421,
    "names": [
      "Brixton"
    ]
  },
  {
    "displayName": "Bromley-by-Bow",
    "lat": 51.52466,
    "lng": -0.01282,
    "names": [
      "Bromley-by-Bow"
    ]
  },
  {
    "displayName": "Brondesbury",
    "lat": 51.54505,
    "lng": -0.20297,
    "names": [
      "Brondesbury"
    ]
  },
  {
    "displayName": "Brondesbury Park",
    "lat": 51.5406,
    "lng": -0.21093,
    "names": [
      "Brondesbury Park"
    ]
  },
  {
    "displayName": "Buckhurst Hill",
    "lat": 51.62611,
    "lng": 0.04705,
    "names": [
      "Buckhurst Hill"
    ]
  },
  {
    "displayName": "Burnt Oak",
    "lat": 51.603,
    "lng": -0.26427,
    "names": [
      "Burnt Oak"
    ]
  },
  {
    "displayName": "Caledonian Road",
    "lat": 51.5485,
    "lng": -0.11802,
    "names": [
      "Caledonian Road"
    ]
  },
  {
    "displayName": "Caledonian Road & Barnesbury",
    "lat": 51.54326,
    "lng": -0.11544,
    "names": [
      "Caledonian Road & Barnesbury"
    ]
  },
  {
    "displayName": "Camden Road",
    "lat": 51.54192,
    "lng": -0.13981,
    "names": [
      "Camden Road"
    ]
  },
  {
    "displayName": "Camden Town",
    "lat": 51.5393,
    "lng": -0.14316,
    "names": [
      "Camden Town"
    ]
  },
  {
    "displayName": "Canada Water",
    "lat": 51.49787,
    "lng": -0.04967,
    "names": [
      "Canada Water"
    ]
  },
  {
    "displayName": "Canary Wharf",
    "lat": 51.505946,
    "lng": -0.020493,
    "names": [
      "Canary Wharf"
    ]
  },
  {
    "displayName": "Canning Town",
    "lat": 51.51388,
    "lng": 0.008876,
    "names": [
      "Canning Town"
    ]
  },
  {
    "displayName": "Cannon Street",
    "lat": 51.51141,
    "lng": -0.09047,
    "names": [
      "Cannon Street"
    ]
  },
  {
    "displayName": "Canonbury",
    "lat": 51.54822,
    "lng": -0.09632,
    "names": [
      "Canonbury"
    ]
  },
  {
    "displayName": "Canons Park",
    "lat": 51.6081,
    "lng": -0.29487,
    "names": [
      "Canons Park"
    ]
  },
  {
    "displayName": "Chalfont & Latimer",
    "lat": 51.66822,
    "lng": -0.56053,
    "names": [
      "Chalfont & Latimer"
    ]
  },
  {
    "displayName": "Chalk Farm",
    "lat": 51.5439,
    "lng": -0.15384,
    "names": [
      "Chalk Farm"
    ]
  },
  {
    "displayName": "Chancery Lane",
    "lat": 51.51836,
    "lng": -0.11115,
    "names": [
      "Chancery Lane"
    ]
  },
  {
    "displayName": "Charing Cross",
    "lat": 51.507108,
    "lng": -0.122963,
    "names": [
      "Charing Cross"
    ]
  },
  {
    "displayName": "Chesham",
    "lat": 51.70522733,
    "lng": -0.610986426,
    "names": [
      "Chesham"
    ]
  },
  {
    "displayName": "Chigwell",
    "lat": 51.61795,
    "lng": 0.07511,
    "names": [
      "Chigwell"
    ]
  },
  {
    "displayName": "Chiswick Park",
    "lat": 51.49466,
    "lng": -0.26866,
    "names": [
      "Chiswick Park"
    ]
  },
  {
    "displayName": "Chorleywood",
    "lat": 51.65429872,
    "lng": -0.518373353,
    "names": [
      "Chorleywood"
    ]
  },
  {
    "displayName": "City Thameslink",
    "lat": 51.51416,
    "lng": -0.10335,
    "names": [
      "City Thameslink"
    ]
  },
  {
    "displayName": "Clapham Common",
    "lat": 51.46156,
    "lng": -0.13802,
    "names": [
      "Clapham Common"
    ]
  },
  {
    "displayName": "Clapham North",
    "lat": 51.46522,
    "lng": -0.1295,
    "names": [
      "Clapham North"
    ]
  },
  {
    "displayName": "Clapham South",
    "lat": 51.45292257,
    "lng": -0.147562148,
    "names": [
      "Clapham South"
    ]
  },
  {
    "displayName": "Cockfosters",
    "lat": 51.65117,
    "lng": -0.14811,
    "names": [
      "Cockfosters"
    ]
  },
  {
    "displayName": "Colindale",
    "lat": 51.59556,
    "lng": -0.24996,
    "names": [
      "Colindale"
    ]
  },
  {
    "displayName": "Colliers Wood",
    "lat": 51.41823649,
    "lng": -0.17800983,
    "names": [
      "Colliers Wood"
    ]
  },
  {
    "displayName": "Covent Garden",
    "lat": 51.51308,
    "lng": -0.12427,
    "names": [
      "Covent Garden"
    ]
  },
  {
    "displayName": "Crossharbour",
    "lat": 51.495086,
    "lng": -0.014543,
    "names": [
      "Crossharbour"
    ]
  },
  {
    "displayName": "Croxley",
    "lat": 51.64733268,
    "lng": -0.441479115,
    "names": [
      "Croxley"
    ]
  },
  {
    "displayName": "Custom House",
    "lat": 51.509731,
    "lng": 0.026013,
    "names": [
      "Custom House"
    ]
  },
  {
    "displayName": "Cutty Sark",
    "lat": 51.481713,
    "lng": -0.010811,
    "names": [
      "Cutty Sark"
    ]
  },
  {
    "displayName": "Cyprus",
    "lat": 51.50836,
    "lng": 0.06399,
    "names": [
      "Cyprus"
    ]
  },
  {
    "displayName": "Dagenham East",
    "lat": 51.54396,
    "lng": 0.16439,
    "names": [
      "Dagenham East"
    ]
  },
  {
    "displayName": "Dagenham Heathway",
    "lat": 51.54173,
    "lng": 0.14543,
    "names": [
      "Dagenham Heathway"
    ]
  },
  {
    "displayName": "Dalston Kingsland",
    "lat": 51.54832,
    "lng": -0.07879,
    "names": [
      "Dalston Kingsland"
    ]
  },
  {
    "displayName": "Debden",
    "lat": 51.64535,
    "lng": 0.08364,
    "names": [
      "Debden"
    ]
  },
  {
    "displayName": "Deptford Bridge",
    "lat": 51.478016,
    "lng": -0.022496,
    "names": [
      "Deptford Bridge"
    ]
  },
  {
    "displayName": "Devons Road",
    "lat": 51.522274,
    "lng": -0.01708,
    "names": [
      "Devons Road"
    ]
  },
  {
    "displayName": "Dollis Hill",
    "lat": 51.5525,
    "lng": -0.23884,
    "names": [
      "Dollis Hill"
    ]
  },
  {
    "displayName": "Ealing Broadway",
    "lat": 51.51482,
    "lng": -0.30118,
    "names": [
      "Ealing Broadway"
    ]
  },
  {
    "displayName": "Ealing Common",
    "lat": 51.50997,
    "lng": -0.28825,
    "names": [
      "Ealing Common"
    ]
  },
  {
    "displayName": "Earl's Court",
    "lat": 51.491521,
    "lng": -0.193906,
    "names": [
      "Earl's Court"
    ]
  },
  {
    "displayName": "East Acton",
    "lat": 51.51753,
    "lng": -0.24827,
    "names": [
      "East Acton"
    ]
  },
  {
    "displayName": "East Finchley",
    "lat": 51.5872974705487,
    "lng": -0.16495632312818,
    "names": [
      "East Finchley"
    ]
  },
  {
    "displayName": "East Ham",
    "lat": 51.53931,
    "lng": 0.0526,
    "names": [
      "East Ham"
    ]
  },
  {
    "displayName": "East India",
    "lat": 51.509516,
    "lng": -0.002128,
    "names": [
      "East India"
    ]
  },
  {
    "displayName": "East Putney",
    "lat": 51.459015,
    "lng": -0.211138,
    "names": [
      "East Putney"
    ]
  },
  {
    "displayName": "Eastcote",
    "lat": 51.57676,
    "lng": -0.39629,
    "names": [
      "Eastcote"
    ]
  },
  {
    "displayName": "Edgware",
    "lat": 51.61385,
    "lng": -0.27515,
    "names": [
      "Edgware"
    ]
  },
  {
    "displayName": "Edgware Road (Bakerloo Line)",
    "lat": 51.51956,
    "lng": -0.169068,
    "names": [
      "Edgware Road (Bakerloo Line)"
    ]
  },
  {
    "displayName": "Edgware Road (Circle Line)",
    "lat": 51.520195,
    "lng": -0.166986,
    "names": [
      "Edgware Road (Circle Line)",
      "Edgware Road (District, Circle, H&C lines)"
    ]
  },
  {
    "displayName": "Elephant & Castle",
    "lat": 51.49467,
    "lng": -0.10047,
    "names": [
      "Elephant & Castle"
    ]
  },
  {
    "displayName": "Elm Park",
    "lat": 51.54969,
    "lng": 0.19779,
    "names": [
      "Elm Park"
    ]
  },
  {
    "displayName": "Elverson Road",
    "lat": 51.468768,
    "lng": -0.016265,
    "names": [
      "Elverson Road"
    ]
  },
  {
    "displayName": "Embankment",
    "lat": 51.50717,
    "lng": -0.12195,
    "names": [
      "Embankment"
    ]
  },
  {
    "displayName": "Epping",
    "lat": 51.69365,
    "lng": 0.11495,
    "names": [
      "Epping"
    ]
  },
  {
    "displayName": "Euston",
    "lat": 51.52774,
    "lng": -0.13303,
    "names": [
      "Euston"
    ]
  },
  {
    "displayName": "Euston Square",
    "lat": 51.52584,
    "lng": -0.1357,
    "names": [
      "Euston Square"
    ]
  },
  {
    "displayName": "Fairlop",
    "lat": 51.59634,
    "lng": 0.09125,
    "names": [
      "Fairlop"
    ]
  },
  {
    "displayName": "Farringdon",
    "lat": 51.520362948,
    "lng": -0.105126482,
    "names": [
      "Farringdon"
    ]
  },
  {
    "displayName": "Finchley Central",
    "lat": 51.60102,
    "lng": -0.1924,
    "names": [
      "Finchley Central"
    ]
  },
  {
    "displayName": "Finchley Road",
    "lat": 51.546701,
    "lng": -0.179867,
    "names": [
      "Finchley Road"
    ]
  },
  {
    "displayName": "Finchley Road and Frognal",
    "lat": 51.54994,
    "lng": -0.18412,
    "names": [
      "Finchley Road and Frognal"
    ]
  },
  {
    "displayName": "Finsbury Park",
    "lat": 51.56498,
    "lng": -0.10543,
    "names": [
      "Finsbury Park"
    ]
  },
  {
    "displayName": "Fulham Broadway",
    "lat": 51.48033,
    "lng": -0.19488,
    "names": [
      "Fulham Broadway"
    ]
  },
  {
    "displayName": "Gallions Reach",
    "lat": 51.509111,
    "lng": 0.071911,
    "names": [
      "Gallions Reach"
    ]
  },
  {
    "displayName": "Gants Hill",
    "lat": 51.57649,
    "lng": 0.06637,
    "names": [
      "Gants Hill"
    ]
  },
  {
    "displayName": "Gloucester Road",
    "lat": 51.49408266,
    "lng": -0.17295341,
    "names": [
      "Gloucester Road"
    ]
  },
  {
    "displayName": "Golders Green",
    "lat": 51.57249,
    "lng": -0.1941,
    "names": [
      "Golders Green"
    ]
  },
  {
    "displayName": "Goldhawk Road",
    "lat": 51.501248,
    "lng": -0.226776,
    "names": [
      "Goldhawk Road"
    ]
  },
  {
    "displayName": "Goodge Street",
    "lat": 51.5206,
    "lng": -0.13441,
    "names": [
      "Goodge Street"
    ]
  },
  {
    "displayName": "Gospel Oak",
    "lat": 51.55597,
    "lng": -0.15228,
    "names": [
      "Gospel Oak"
    ]
  },
  {
    "displayName": "Grange Hill",
    "lat": 51.61326,
    "lng": 0.09258,
    "names": [
      "Grange Hill"
    ]
  },
  {
    "displayName": "Great Portland Street",
    "lat": 51.52391,
    "lng": -0.14397,
    "names": [
      "Great Portland Street"
    ]
  },
  {
    "displayName": "Green Park",
    "lat": 51.50674,
    "lng": -0.14276,
    "names": [
      "Green Park"
    ]
  },
  {
    "displayName": "Greenford",
    "lat": 51.542346,
    "lng": -0.345903,
    "names": [
      "Greenford"
    ]
  },
  {
    "displayName": "Greenwich",
    "lat": 51.478016,
    "lng": -0.015391,
    "names": [
      "Greenwich"
    ]
  },
  {
    "displayName": "Gunnersbury",
    "lat": 51.49126844,
    "lng": -0.275554312,
    "names": [
      "Gunnersbury"
    ]
  },
  {
    "displayName": "Hackney Central",
    "lat": 51.54689,
    "lng": -0.05784,
    "names": [
      "Hackney Central"
    ]
  },
  {
    "displayName": "Hackney Wick",
    "lat": 51.54348,
    "lng": -0.02474,
    "names": [
      "Hackney Wick"
    ]
  },
  {
    "displayName": "Hainault",
    "lat": 51.60288,
    "lng": 0.09332,
    "names": [
      "Hainault"
    ]
  },
  {
    "displayName": "Hammersmith (Dist&Picc Line)",
    "lat": 51.492328,
    "lng": -0.222825,
    "names": [
      "Hammersmith (Dist&Picc Line)",
      "Hammersmith (District, Piccadilly lines)"
    ]
  },
  {
    "displayName": "Hammersmith (H&C Line)",
    "lat": 51.494190748,
    "lng": -0.225964953,
    "names": [
      "Hammersmith (H&C Line)"
    ]
  },
  {
    "displayName": "Hampstead",
    "lat": 51.55645,
    "lng": -0.17851,
    "names": [
      "Hampstead"
    ]
  },
  {
    "displayName": "Hampstead Heath",
    "lat": 51.55533,
    "lng": -0.16656,
    "names": [
      "Hampstead Heath"
    ]
  },
  {
    "displayName": "Hanger Lane",
    "lat": 51.53,
    "lng": -0.2929,
    "names": [
      "Hanger Lane"
    ]
  },
  {
    "displayName": "Harlesden",
    "lat": 51.53628278,
    "lng": -0.257622488,
    "names": [
      "Harlesden"
    ]
  },
  {
    "displayName": "Harrow & Wealdstone",
    "lat": 51.59205973,
    "lng": -0.334725352,
    "names": [
      "Harrow & Wealdstone"
    ]
  },
  {
    "displayName": "Harrow-on-the-Hill",
    "lat": 51.579335,
    "lng": -0.337052,
    "names": [
      "Harrow-on-the-Hill"
    ]
  },
  {
    "displayName": "Hatton Cross",
    "lat": 51.466988,
    "lng": -0.423035,
    "names": [
      "Hatton Cross"
    ]
  },
  {
    "displayName": "Heathrow Terminal 4",
    "lat": 51.4594777,
    "lng": -0.44689658,
    "names": [
      "Heathrow Terminal 4"
    ]
  },
  {
    "displayName": "Heathrow Terminals 1-2-3",
    "lat": 51.4712899,
    "lng": -0.4527438,
    "names": [
      "Heathrow Terminals 1-2-3",
      "Heathrow Terminals 123"
    ]
  },
  {
    "displayName": "Hendon Central",
    "lat": 51.58346,
    "lng": -0.22653,
    "names": [
      "Hendon Central"
    ]
  },
  {
    "displayName": "Heron Quays",
    "lat": 51.5046489,
    "lng": -0.0207681,
    "names": [
      "Heron Quays"
    ]
  },
  {
    "displayName": "High Barnet",
    "lat": 51.6506519031751,
    "lng": -0.194138165994553,
    "names": [
      "High Barnet"
    ]
  },
  {
    "displayName": "High Street Kensington",
    "lat": 51.5003459144,
    "lng": -0.192351664,
    "names": [
      "High Street Kensington"
    ]
  },
  {
    "displayName": "Highbury & Islington",
    "lat": 51.54502,
    "lng": -0.10752,
    "names": [
      "Highbury & Islington"
    ]
  },
  {
    "displayName": "Highgate",
    "lat": 51.57722,
    "lng": -0.14553,
    "names": [
      "Highgate"
    ]
  },
  {
    "displayName": "Hillingdon",
    "lat": 51.55364,
    "lng": -0.45062,
    "names": [
      "Hillingdon"
    ]
  },
  {
    "displayName": "Holborn",
    "lat": 51.51711,
    "lng": -0.12055,
    "names": [
      "Holborn"
    ]
  },
  {
    "displayName": "Holland Park",
    "lat": 51.50722,
    "lng": -0.20553,
    "names": [
      "Holland Park"
    ]
  },
  {
    "displayName": "Holloway Road",
    "lat": 51.5529,
    "lng": -0.11278,
    "names": [
      "Holloway Road"
    ]
  },
  {
    "displayName": "Homerton",
    "lat": 51.5471,
    "lng": -0.04323,
    "names": [
      "Homerton"
    ]
  },
  {
    "displayName": "Hornchurch",
    "lat": 51.55387,
    "lng": 0.21797,
    "names": [
      "Hornchurch"
    ]
  },
  {
    "displayName": "Hounslow Central",
    "lat": 51.47129,
    "lng": -0.365853,
    "names": [
      "Hounslow Central"
    ]
  },
  {
    "displayName": "Hounslow East",
    "lat": 51.47354,
    "lng": -0.356,
    "names": [
      "Hounslow East"
    ]
  },
  {
    "displayName": "Hounslow West",
    "lat": 51.473689,
    "lng": -0.386471,
    "names": [
      "Hounslow West"
    ]
  },
  {
    "displayName": "Hyde Park Corner",
    "lat": 51.50313,
    "lng": -0.15278,
    "names": [
      "Hyde Park Corner"
    ]
  },
  {
    "displayName": "Ickenham",
    "lat": 51.56147,
    "lng": -0.44257,
    "names": [
      "Ickenham"
    ]
  },
  {
    "displayName": "Island Gardens",
    "lat": 51.488001,
    "lng": -0.011039,
    "names": [
      "Island Gardens"
    ]
  },
  {
    "displayName": "Kennington",
    "lat": 51.48823,
    "lng": -0.10587,
    "names": [
      "Kennington"
    ]
  },
  {
    "displayName": "Kensal Green",
    "lat": 51.53060655,
    "lng": -0.224253545,
    "names": [
      "Kensal Green"
    ]
  },
  {
    "displayName": "Kensal Rise",
    "lat": 51.53387,
    "lng": -0.22145,
    "names": [
      "Kensal Rise"
    ]
  },
  {
    "displayName": "Kensington (Olympia)",
    "lat": 51.49675,
    "lng": -0.20931,
    "names": [
      "Kensington (Olympia)"
    ]
  },
  {
    "displayName": "Kentish Town",
    "lat": 51.55046,
    "lng": -0.14067,
    "names": [
      "Kentish Town"
    ]
  },
  {
    "displayName": "Kentish Town West",
    "lat": 51.54776,
    "lng": -0.14708,
    "names": [
      "Kentish Town West"
    ]
  },
  {
    "displayName": "Kenton",
    "lat": 51.58173809,
    "lng": -0.316870809,
    "names": [
      "Kenton"
    ]
  },
  {
    "displayName": "Kew Gardens",
    "lat": 51.47725641,
    "lng": -0.284980014,
    "names": [
      "Kew Gardens"
    ]
  },
  {
    "displayName": "Kilburn",
    "lat": 51.5471715,
    "lng": -0.205002,
    "names": [
      "Kilburn"
    ]
  },
  {
    "displayName": "Kilburn Park",
    "lat": 51.53495818,
    "lng": -0.193963023,
    "names": [
      "Kilburn Park"
    ]
  },
  {
    "displayName": "King George V",
    "lat": 51.50202,
    "lng": 0.06299,
    "names": [
      "King George V"
    ]
  },
  {
    "displayName": "King's Cross St.Pancras",
    "lat": 51.53057,
    "lng": -0.12399,
    "names": [
      "King's Cross St.Pancras",
      "Kings Cross",
      "St Pancras International"
    ]
  },
  {
    "displayName": "King's Cross Thameslink",
    "lat": 51.5308,
    "lng": -0.12044,
    "names": [
      "King's Cross Thameslink"
    ]
  },
  {
    "displayName": "Kingsbury",
    "lat": 51.58422,
    "lng": -0.2788,
    "names": [
      "Kingsbury"
    ]
  },
  {
    "displayName": "Knightsbridge",
    "lat": 51.50169,
    "lng": -0.1603,
    "names": [
      "Knightsbridge"
    ]
  },
  {
    "displayName": "Ladbroke Grove",
    "lat": 51.5173,
    "lng": -0.21114,
    "names": [
      "Ladbroke Grove"
    ]
  },
  {
    "displayName": "Lambeth North",
    "lat": 51.49894,
    "lng": -0.11216,
    "names": [
      "Lambeth North"
    ]
  },
  {
    "displayName": "Lancaster Gate",
    "lat": 51.512083,
    "lng": -0.175067,
    "names": [
      "Lancaster Gate"
    ]
  },
  {
    "displayName": "Latimer Road",
    "lat": 51.513125,
    "lng": -0.218428,
    "names": [
      "Latimer Road"
    ]
  },
  {
    "displayName": "Leicester Square",
    "lat": 51.51148,
    "lng": -0.12849,
    "names": [
      "Leicester Square"
    ]
  },
  {
    "displayName": "Lewisham",
    "lat": 51.46554,
    "lng": -0.013196,
    "names": [
      "Lewisham"
    ]
  },
  {
    "displayName": "Leyton",
    "lat": 51.556483,
    "lng": -0.005669,
    "names": [
      "Leyton"
    ]
  },
  {
    "displayName": "Leytonstone",
    "lat": 51.56828,
    "lng": 0.00739,
    "names": [
      "Leytonstone"
    ]
  },
  {
    "displayName": "Limehouse",
    "lat": 51.5124366,
    "lng": -0.0395511,
    "names": [
      "Limehouse",
      "Limehouse DLR"
    ]
  },
  {
    "displayName": "Liverpool Street",
    "lat": 51.517675,
    "lng": -0.082458,
    "names": [
      "Liverpool Street"
    ]
  },
  {
    "displayName": "London Bridge",
    "lat": 51.505353,
    "lng": -0.084826,
    "names": [
      "London Bridge"
    ]
  },
  {
    "displayName": "London City Airport",
    "lat": 51.50319,
    "lng": 0.04864,
    "names": [
      "London City Airport"
    ]
  },
  {
    "displayName": "Loughton",
    "lat": 51.6417,
    "lng": 0.05583,
    "names": [
      "Loughton"
    ]
  },
  {
    "displayName": "Maida Vale",
    "lat": 51.52989409,
    "lng": -0.185888819,
    "names": [
      "Maida Vale"
    ]
  },
  {
    "displayName": "Manor House",
    "lat": 51.57038,
    "lng": -0.09601,
    "names": [
      "Manor House"
    ]
  },
  {
    "displayName": "Mansion House",
    "lat": 51.51256,
    "lng": -0.09397,
    "names": [
      "Mansion House"
    ]
  },
  {
    "displayName": "Marble Arch",
    "lat": 51.513597,
    "lng": -0.15869195,
    "names": [
      "Marble Arch"
    ]
  },
  {
    "displayName": "Marylebone",
    "lat": 51.52266,
    "lng": -0.162996,
    "names": [
      "Marylebone"
    ]
  },
  {
    "displayName": "Mile End",
    "lat": 51.525306,
    "lng": -0.033471,
    "names": [
      "Mile End"
    ]
  },
  {
    "displayName": "Mill Hill East",
    "lat": 51.60892,
    "lng": -0.20965,
    "names": [
      "Mill Hill East"
    ]
  },
  {
    "displayName": "Monument",
    "lat": 51.510165,
    "lng": -0.085991,
    "names": [
      "Monument"
    ]
  },
  {
    "displayName": "Moor Park",
    "lat": 51.62970512,
    "lng": -0.432070848,
    "names": [
      "Moor Park"
    ]
  },
  {
    "displayName": "Moorgate",
    "lat": 51.51817,
    "lng": -0.08859,
    "names": [
      "Moorgate"
    ]
  },
  {
    "displayName": "Morden",
    "lat": 51.40222413,
    "lng": -0.194599126,
    "names": [
      "Morden"
    ]
  },
  {
    "displayName": "Mornington Crescent",
    "lat": 51.53427,
    "lng": -0.13901,
    "names": [
      "Mornington Crescent"
    ]
  },
  {
    "displayName": "Mudchute",
    "lat": 51.491185,
    "lng": -0.014595,
    "names": [
      "Mudchute"
    ]
  },
  {
    "displayName": "Neasden",
    "lat": 51.55427,
    "lng": -0.25042,
    "names": [
      "Neasden"
    ]
  },
  {
    "displayName": "New Cross",
    "lat": 51.477363,
    "lng": -0.0338817,
    "names": [
      "New Cross"
    ]
  },
  {
    "displayName": "New Cross Gate",
    "lat": 51.47585,
    "lng": -0.04049,
    "names": [
      "New Cross Gate"
    ]
  },
  {
    "displayName": "Newbury Park",
    "lat": 51.57565,
    "lng": 0.08927,
    "names": [
      "Newbury Park"
    ]
  },
  {
    "displayName": "North Acton",
    "lat": 51.5237,
    "lng": -0.26019,
    "names": [
      "North Acton"
    ]
  },
  {
    "displayName": "North Ealing",
    "lat": 51.51807,
    "lng": -0.28838,
    "names": [
      "North Ealing"
    ]
  },
  {
    "displayName": "North Greenwich",
    "lat": 51.50056,
    "lng": 0.0036,
    "names": [
      "North Greenwich"
    ]
  },
  {
    "displayName": "North Harrow",
    "lat": 51.58503612,
    "lng": -0.362595264,
    "names": [
      "North Harrow"
    ]
  },
  {
    "displayName": "North Wembley",
    "lat": 51.56258091,
    "lng": -0.304072648,
    "names": [
      "North Wembley"
    ]
  },
  {
    "displayName": "Northfields",
    "lat": 51.499856,
    "lng": -0.313188,
    "names": [
      "Northfields"
    ]
  },
  {
    "displayName": "Northolt",
    "lat": 51.548054,
    "lng": -0.368257,
    "names": [
      "Northolt"
    ]
  },
  {
    "displayName": "Northwick Park",
    "lat": 51.57850117,
    "lng": -0.317857023,
    "names": [
      "Northwick Park"
    ]
  },
  {
    "displayName": "Northwood",
    "lat": 51.61098984,
    "lng": -0.423584422,
    "names": [
      "Northwood"
    ]
  },
  {
    "displayName": "Northwood Hills",
    "lat": 51.60043795,
    "lng": -0.408812575,
    "names": [
      "Northwood Hills"
    ]
  },
  {
    "displayName": "Notting Hill Gate",
    "lat": 51.509028,
    "lng": -0.1962847,
    "names": [
      "Notting Hill Gate"
    ]
  },
  {
    "displayName": "Oakwood",
    "lat": 51.64739,
    "lng": -0.13192,
    "names": [
      "Oakwood"
    ]
  },
  {
    "displayName": "Old Street",
    "lat": 51.52618,
    "lng": -0.08751,
    "names": [
      "Old Street"
    ]
  },
  {
    "displayName": "Osterley",
    "lat": 51.481569,
    "lng": -0.35196,
    "names": [
      "Osterley"
    ]
  },
  {
    "displayName": "Oval",
    "lat": 51.48214,
    "lng": -0.11284,
    "names": [
      "Oval"
    ]
  },
  {
    "displayName": "Oxford Circus",
    "lat": 51.51517,
    "lng": -0.14119,
    "names": [
      "Oxford Circus"
    ]
  },
  {
    "displayName": "Paddington",
    "lat": 51.5151846554,
    "lng": -0.17553880792,
    "names": [
      "Paddington"
    ]
  },
  {
    "displayName": "Paddington (H&C Line)",
    "lat": 51.519096707,
    "lng": -0.176968859,
    "names": [
      "Paddington (H&C Line)",
      "Paddington (Bakerloo, Circle/District and H&C)"
    ]
  },
  {
    "displayName": "Park Royal",
    "lat": 51.52671,
    "lng": -0.28417,
    "names": [
      "Park Royal"
    ]
  },
  {
    "displayName": "Parsons Green",
    "lat": 51.47488,
    "lng": -0.20205,
    "names": [
      "Parsons Green"
    ]
  },
  {
    "displayName": "Perivale",
    "lat": 51.536673,
    "lng": -0.32391,
    "names": [
      "Perivale"
    ]
  },
  {
    "displayName": "Piccadilly Circus",
    "lat": 51.51022,
    "lng": -0.13392,
    "names": [
      "Piccadilly Circus"
    ]
  },
  {
    "displayName": "Pimlico",
    "lat": 51.489081,
    "lng": -0.133037,
    "names": [
      "Pimlico"
    ]
  },
  {
    "displayName": "Pinner",
    "lat": 51.59270271,
    "lng": -0.380539158,
    "names": [
      "Pinner"
    ]
  },
  {
    "displayName": "Plaistow",
    "lat": 51.53122,
    "lng": 0.01659,
    "names": [
      "Plaistow"
    ]
  },
  {
    "displayName": "Pontoon Dock",
    "lat": 51.50205,
    "lng": 0.03308,
    "names": [
      "Pontoon Dock"
    ]
  },
  {
    "displayName": "Poplar",
    "lat": 51.507725,
    "lng": -0.016503,
    "names": [
      "Poplar"
    ]
  },
  {
    "displayName": "Preston Road",
    "lat": 51.57229051,
    "lng": -0.295813875,
    "names": [
      "Preston Road"
    ]
  },
  {
    "displayName": "Prince Regent",
    "lat": 51.509471,
    "lng": 0.033473,
    "names": [
      "Prince Regent"
    ]
  },
  {
    "displayName": "Pudding Mill Lane",
    "lat": 51.5339,
    "lng": -0.0142,
    "names": [
      "Pudding Mill Lane"
    ]
  },
  {
    "displayName": "Putney Bridge",
    "lat": 51.46868,
    "lng": -0.2088141,
    "names": [
      "Putney Bridge"
    ]
  },
  {
    "displayName": "Queen's Park",
    "lat": 51.534179,
    "lng": -0.205257721,
    "names": [
      "Queen's Park"
    ]
  },
  {
    "displayName": "Queensbury",
    "lat": 51.59437,
    "lng": -0.28655,
    "names": [
      "Queensbury"
    ]
  },
  {
    "displayName": "Queensway",
    "lat": 51.510484,
    "lng": -0.18705,
    "names": [
      "Queensway"
    ]
  },
  {
    "displayName": "Ravenscourt Park",
    "lat": 51.49419,
    "lng": -0.2356,
    "names": [
      "Ravenscourt Park"
    ]
  },
  {
    "displayName": "Rayners Lane",
    "lat": 51.57534,
    "lng": -0.3724,
    "names": [
      "Rayners Lane"
    ]
  },
  {
    "displayName": "Redbridge",
    "lat": 51.57618,
    "lng": 0.04542,
    "names": [
      "Redbridge"
    ]
  },
  {
    "displayName": "Regent's Park",
    "lat": 51.52344,
    "lng": -0.14713,
    "names": [
      "Regent's Park"
    ]
  },
  {
    "displayName": "Richmond",
    "lat": 51.46343247,
    "lng": -0.302033247,
    "names": [
      "Richmond"
    ]
  },
  {
    "displayName": "Rickmansworth",
    "lat": 51.64027898,
    "lng": -0.473521454,
    "names": [
      "Rickmansworth"
    ]
  },
  {
    "displayName": "Roding Valley",
    "lat": 51.61691,
    "lng": 0.04264,
    "names": [
      "Roding Valley"
    ]
  },
  {
    "displayName": "Rotherhithe",
    "lat": 51.50089,
    "lng": -0.05211,
    "names": [
      "Rotherhithe"
    ]
  },
  {
    "displayName": "Royal Albert",
    "lat": 51.508456,
    "lng": 0.046148,
    "names": [
      "Royal Albert"
    ]
  },
  {
    "displayName": "Royal Oak",
    "lat": 51.519383,
    "lng": -0.187785,
    "names": [
      "Royal Oak"
    ]
  },
  {
    "displayName": "Royal Victoria",
    "lat": 51.509156,
    "lng": 0.018083,
    "names": [
      "Royal Victoria"
    ]
  },
  {
    "displayName": "Ruislip",
    "lat": 51.57146,
    "lng": -0.42157,
    "names": [
      "Ruislip"
    ]
  },
  {
    "displayName": "Ruislip Gardens",
    "lat": 51.560711,
    "lng": -0.410587,
    "names": [
      "Ruislip Gardens"
    ]
  },
  {
    "displayName": "Ruislip Manor",
    "lat": 51.57349,
    "lng": -0.41185,
    "names": [
      "Ruislip Manor"
    ]
  },
  {
    "displayName": "Russell Square",
    "lat": 51.523243,
    "lng": -0.124336,
    "names": [
      "Russell Square"
    ]
  },
  {
    "displayName": "Seven Sisters",
    "lat": 51.58318,
    "lng": -0.07495,
    "names": [
      "Seven Sisters"
    ]
  },
  {
    "displayName": "Shadwell",
    "lat": 51.511853,
    "lng": -0.05548,
    "names": [
      "Shadwell"
    ]
  },
  {
    "displayName": "Shepherd's Bush",
    "lat": 51.50474,
    "lng": -0.21881,
    "names": [
      "Shepherd's Bush",
      "Shepherd's Bush (Central line)"
    ]
  },
  {
    "displayName": "Shepherd's Bush Market",
    "lat": 51.506063,
    "lng": -0.226231,
    "names": [
      "Shepherd's Bush Market"
    ]
  },
  {
    "displayName": "Shoreditch High Street",
    "lat": 51.5234,
    "lng": -0.0768,
    "names": [
      "Shoreditch High Street",
      "Shoreditch High Street railway station"
    ]
  },
  {
    "displayName": "Sloane Square",
    "lat": 51.49258474,
    "lng": -0.156090904,
    "names": [
      "Sloane Square"
    ]
  },
  {
    "displayName": "Snaresbrook",
    "lat": 51.58002,
    "lng": 0.02133,
    "names": [
      "Snaresbrook"
    ]
  },
  {
    "displayName": "South Acton",
    "lat": 51.49960784,
    "lng": -0.270187631,
    "names": [
      "South Acton"
    ]
  },
  {
    "displayName": "South Ealing",
    "lat": 51.500801,
    "lng": -0.307856,
    "names": [
      "South Ealing"
    ]
  },
  {
    "displayName": "South Harrow",
    "lat": 51.56461,
    "lng": -0.3521,
    "names": [
      "South Harrow"
    ]
  },
  {
    "displayName": "South Kensington",
    "lat": 51.494066,
    "lng": -0.172791,
    "names": [
      "South Kensington"
    ]
  },
  {
    "displayName": "South Kenton",
    "lat": 51.57044666,
    "lng": -0.308566354,
    "names": [
      "South Kenton"
    ]
  },
  {
    "displayName": "South Quay",
    "lat": 51.500413,
    "lng": -0.018636,
    "names": [
      "South Quay"
    ]
  },
  {
    "displayName": "South Ruislip",
    "lat": 51.556795,
    "lng": -0.398708,
    "names": [
      "South Ruislip"
    ]
  },
  {
    "displayName": "South Wimbledon",
    "lat": 51.41543048,
    "lng": -0.192262754,
    "names": [
      "South Wimbledon"
    ]
  },
  {
    "displayName": "South Woodford",
    "lat": 51.59088,
    "lng": 0.02726,
    "names": [
      "South Woodford"
    ]
  },
  {
    "displayName": "Southfields",
    "lat": 51.444941,
    "lng": -0.206466,
    "names": [
      "Southfields"
    ]
  },
  {
    "displayName": "Southgate",
    "lat": 51.6324,
    "lng": -0.12765,
    "names": [
      "Southgate"
    ]
  },
  {
    "displayName": "Southwark",
    "lat": 51.50384,
    "lng": -0.10478,
    "names": [
      "Southwark"
    ]
  },
  {
    "displayName": "St.James's Park",
    "lat": 51.49971,
    "lng": -0.13394,
    "names": [
      "St.James's Park"
    ]
  },
  {
    "displayName": "St.John's Wood",
    "lat": 51.53472,
    "lng": -0.17428,
    "names": [
      "St.John's Wood"
    ]
  },
  {
    "displayName": "St.Paul's",
    "lat": 51.515285,
    "lng": -0.097598,
    "names": [
      "St.Paul's"
    ]
  },
  {
    "displayName": "Stamford Brook",
    "lat": 51.494935,
    "lng": -0.24619,
    "names": [
      "Stamford Brook"
    ]
  },
  {
    "displayName": "Stanmore",
    "lat": 51.61895,
    "lng": -0.30241,
    "names": [
      "Stanmore"
    ]
  },
  {
    "displayName": "Stepney Green",
    "lat": 51.521884,
    "lng": -0.046546,
    "names": [
      "Stepney Green"
    ]
  },
  {
    "displayName": "Stockwell",
    "lat": 51.47224,
    "lng": -0.1227,
    "names": [
      "Stockwell"
    ]
  },
  {
    "displayName": "Stonebridge Park",
    "lat": 51.54402388,
    "lng": -0.275978856,
    "names": [
      "Stonebridge Park"
    ]
  },
  {
    "displayName": "Stratford",
    "lat": 51.541208,
    "lng": -0.003776,
    "names": [
      "Stratford",
      "Stratford International"
    ]
  },
  {
    "displayName": "Sudbury Hill",
    "lat": 51.556998,
    "lng": -0.335949,
    "names": [
      "Sudbury Hill"
    ]
  },
  {
    "displayName": "Sudbury Town",
    "lat": 51.55093,
    "lng": -0.31598,
    "names": [
      "Sudbury Town"
    ]
  },
  {
    "displayName": "Surrey Quays",
    "lat": 51.49365,
    "lng": -0.04816,
    "names": [
      "Surrey Quays"
    ]
  },
  {
    "displayName": "Swiss Cottage",
    "lat": 51.54333,
    "lng": -0.17436,
    "names": [
      "Swiss Cottage"
    ]
  },
  {
    "displayName": "Temple",
    "lat": 51.51114,
    "lng": -0.11341,
    "names": [
      "Temple"
    ]
  },
  {
    "displayName": "Theydon Bois",
    "lat": 51.67246,
    "lng": 0.10354,
    "names": [
      "Theydon Bois"
    ]
  },
  {
    "displayName": "Tooting Bec",
    "lat": 51.43578971,
    "lng": -0.159635693,
    "names": [
      "Tooting Bec"
    ]
  },
  {
    "displayName": "Tooting Broadway",
    "lat": 51.42780008,
    "lng": -0.167910811,
    "names": [
      "Tooting Broadway"
    ]
  },
  {
    "displayName": "Tottenham Court Road",
    "lat": 51.51672074,
    "lng": -0.13093911,
    "names": [
      "Tottenham Court Road"
    ]
  },
  {
    "displayName": "Tottenham Hale",
    "lat": 51.588878,
    "lng": -0.059808,
    "names": [
      "Tottenham Hale"
    ]
  },
  {
    "displayName": "Totteridge & Whetstone",
    "lat": 51.63022,
    "lng": -0.17917,
    "names": [
      "Totteridge & Whetstone"
    ]
  },
  {
    "displayName": "Tower Gateway",
    "lat": 51.510911,
    "lng": -0.073466,
    "names": [
      "Tower Gateway"
    ]
  },
  {
    "displayName": "Tower Hill",
    "lat": 51.50991,
    "lng": -0.076813,
    "names": [
      "Tower Hill"
    ]
  },
  {
    "displayName": "Tufnell Park",
    "lat": 51.55663,
    "lng": -0.13813,
    "names": [
      "Tufnell Park"
    ]
  },
  {
    "displayName": "Turnham Green",
    "lat": 51.495143,
    "lng": -0.25406,
    "names": [
      "Turnham Green"
    ]
  },
  {
    "displayName": "Turnpike Lane",
    "lat": 51.59031,
    "lng": -0.10308,
    "names": [
      "Turnpike Lane"
    ]
  },
  {
    "displayName": "Twickenham",
    "lat": 51.4501477,
    "lng": -0.3311157,
    "names": [
      "Twickenham"
    ]
  },
  {
    "displayName": "Upminster",
    "lat": 51.55925,
    "lng": 0.25177,
    "names": [
      "Upminster"
    ]
  },
  {
    "displayName": "Upminster Bridge",
    "lat": 51.55847,
    "lng": 0.23509,
    "names": [
      "Upminster Bridge"
    ]
  },
  {
    "displayName": "Upney",
    "lat": 51.53824,
    "lng": 0.09998,
    "names": [
      "Upney"
    ]
  },
  {
    "displayName": "Upton Park",
    "lat": 51.53514,
    "lng": 0.03373,
    "names": [
      "Upton Park"
    ]
  },
  {
    "displayName": "Uxbridge",
    "lat": 51.54687,
    "lng": -0.47725,
    "names": [
      "Uxbridge"
    ]
  },
  {
    "displayName": "Vauxhall",
    "lat": 51.48603,
    "lng": -0.12369,
    "names": [
      "Vauxhall"
    ]
  },
  {
    "displayName": "Victoria",
    "lat": 51.49662869,
    "lng": -0.14400853,
    "names": [
      "Victoria"
    ]
  },
  {
    "displayName": "Walthamstow Central",
    "lat": 51.58293,
    "lng": -0.01996,
    "names": [
      "Walthamstow Central"
    ]
  },
  {
    "displayName": "Wanstead",
    "lat": 51.57565,
    "lng": 0.02864,
    "names": [
      "Wanstead"
    ]
  },
  {
    "displayName": "Wapping",
    "lat": 51.50451,
    "lng": -0.05607,
    "names": [
      "Wapping"
    ]
  },
  {
    "displayName": "Warren Street",
    "lat": 51.5245,
    "lng": -0.1381,
    "names": [
      "Warren Street"
    ]
  },
  {
    "displayName": "Warwick Avenue",
    "lat": 51.52329728,
    "lng": -0.183777837,
    "names": [
      "Warwick Avenue"
    ]
  },
  {
    "displayName": "Waterloo",
    "lat": 51.50322,
    "lng": -0.11328,
    "names": [
      "Waterloo",
      "Waterloo (Jubilee line entrance)"
    ]
  },
  {
    "displayName": "Watford",
    "lat": 51.65741058,
    "lng": -0.41745306,
    "names": [
      "Watford"
    ]
  },
  {
    "displayName": "Wembley Central",
    "lat": 51.55122817,
    "lng": -0.29577538,
    "names": [
      "Wembley Central"
    ]
  },
  {
    "displayName": "Wembley Park",
    "lat": 51.56355598,
    "lng": -0.279770242,
    "names": [
      "Wembley Park"
    ]
  },
  {
    "displayName": "West Acton",
    "lat": 51.51818,
    "lng": -0.28064,
    "names": [
      "West Acton"
    ]
  },
  {
    "displayName": "West Brompton",
    "lat": 51.48681,
    "lng": -0.19475,
    "names": [
      "West Brompton"
    ]
  },
  {
    "displayName": "West Finchley",
    "lat": 51.60922281219,
    "lng": -0.188711152265457,
    "names": [
      "West Finchley"
    ]
  },
  {
    "displayName": "West Ham",
    "lat": 51.527917,
    "lng": 0.004141,
    "names": [
      "West Ham"
    ]
  },
  {
    "displayName": "West Hampstead",
    "lat": 51.54755518,
    "lng": -0.190999685,
    "names": [
      "West Hampstead"
    ]
  },
  {
    "displayName": "West Harrow",
    "lat": 51.5795432,
    "lng": -0.353144584,
    "names": [
      "West Harrow"
    ]
  },
  {
    "displayName": "West India Quay",
    "lat": 51.506723,
    "lng": -0.01988,
    "names": [
      "West India Quay"
    ]
  },
  {
    "displayName": "West Kensington",
    "lat": 51.49085,
    "lng": -0.20532,
    "names": [
      "West Kensington"
    ]
  },
  {
    "displayName": "West Ruislip",
    "lat": 51.569324,
    "lng": -0.43674,
    "names": [
      "West Ruislip"
    ]
  },
  {
    "displayName": "West Silvertown",
    "lat": 51.50335,
    "lng": 0.02208,
    "names": [
      "West Silvertown"
    ]
  },
  {
    "displayName": "Westbourne Park",
    "lat": 51.520995,
    "lng": -0.201778,
    "names": [
      "Westbourne Park"
    ]
  },
  {
    "displayName": "Westferry",
    "lat": 51.509576,
    "lng": -0.02699,
    "names": [
      "Westferry"
    ]
  },
  {
    "displayName": "Westminster",
    "lat": 51.50121,
    "lng": -0.12489,
    "names": [
      "Westminster"
    ]
  },
  {
    "displayName": "White City",
    "lat": 51.512206,
    "lng": -0.224226,
    "names": [
      "White City"
    ]
  },
  {
    "displayName": "Whitechapel",
    "lat": 51.51946,
    "lng": -0.05951,
    "names": [
      "Whitechapel"
    ]
  },
  {
    "displayName": "Willesden Green",
    "lat": 51.54919,
    "lng": -0.22106,
    "names": [
      "Willesden Green"
    ]
  },
  {
    "displayName": "Willesden Junction",
    "lat": 51.53032031,
    "lng": -0.229378995,
    "names": [
      "Willesden Junction"
    ]
  },
  {
    "displayName": "Wimbledon",
    "lat": 51.422,
    "lng": -0.20544,
    "names": [
      "Wimbledon"
    ]
  },
  {
    "displayName": "Wimbledon Park",
    "lat": 51.43391,
    "lng": -0.19864,
    "names": [
      "Wimbledon Park"
    ]
  },
  {
    "displayName": "Wood Green",
    "lat": 51.59709,
    "lng": -0.10939,
    "names": [
      "Wood Green"
    ]
  },
  {
    "displayName": "Woodford",
    "lat": 51.60582,
    "lng": 0.03328,
    "names": [
      "Woodford"
    ]
  },
  {
    "displayName": "Woodside Park",
    "lat": 51.6181717295887,
    "lng": -0.185578887883903,
    "names": [
      "Woodside Park"
    ]
  }
]
